Time,header.seq,header.stamp.secs,header.stamp.nsecs,header.frame_id,status.status,status.service,latitude,longitude,altitude,position_covariance_0,position_covariance_1,position_covariance_2,position_covariance_3,position_covariance_4,position_covariance_5,position_covariance_6,position_covariance_7,position_covariance_8,position_covariance_type
1494414857.1609719,0,1494414857,160971784,gps,0,0,47.3961067199707,8.648130416870117,0.0,0.0,0.0,0.0,0.0,0.0,0.0,0.0,0.0,0.0,0
1494414857.2605634,0,1494414857,260563349,gps,0,0,47.3961067199707,8.648130416870117,0.0,0.0,0.0,0.0,0.0,0.0,0.0,0.0,0.0,0.0,0
1494414857.3605847,0,1494414857,360584850,gps,0,0,47.3961067199707,8.648130416870117,0.0,0.0,0.0,0.0,0.0,0.0,0.0,0.0,0.0,0.0,0
1494414857.4605556,0,1494414857,460555604,gps,0,0,47.3961067199707,8.648130416870117,0.0,0.0,0.0,0.0,0.0,0.0,0.0,0.0,0.0,0.0,0
1494414857.5605903,0,1494414857,560590339,gps,0,0,47.3961067199707,8.648130416870117,0.0,0.0,0.0,0.0,0.0,0.0,0.0,0.0,0.0,0.0,0
1494414857.6606321,0,1494414857,660632144,gps,0,0,47.3961067199707,8.648130416870117,0.0,0.0,0.0,0.0,0.0,0.0,0.0,0.0,0.0,0.0,0
1494414857.7606044,0,1494414857,760604375,gps,0,0,47.3961067199707,8.648130416870117,0.0,0.0,0.0,0.0,0.0,0.0,0.0,0.0,0.0,0.0,0
1494414857.8605802,0,1494414857,860580198,gps,0,0,47.3961067199707,8.648130416870117,0.0,0.0,0.0,0.0,0.0,0.0,0.0,0.0,0.0,0.0,0
1494414857.9605346,0,1494414857,960534494,gps,0,0,47.3961067199707,8.648130416870117,0.0,0.0,0.0,0.0,0.0,0.0,0.0,0.0,0.0,0.0,0
1494414858.0605147,0,1494414858,60514618,gps,0,0,47.3961067199707,8.648130416870117,0.0,0.0,0.0,0.0,0.0,0.0,0.0,0.0,0.0,0.0,0
1494414858.1610115,0,1494414858,161011359,gps,0,0,47.3961067199707,8.648130416870117,0.0,0.0,0.0,0.0,0.0,0.0,0.0,0.0,0.0,0.0,0
1494414858.2605405,0,1494414858,260540492,gps,0,0,47.3961067199707,8.648130416870117,0.0,0.0,0.0,0.0,0.0,0.0,0.0,0.0,0.0,0.0,0
1494414858.360606,0,1494414858,360605858,gps,0,0,47.3961067199707,8.648130416870117,0.0,0.0,0.0,0.0,0.0,0.0,0.0,0.0,0.0,0.0,0
1494414858.4607189,0,1494414858,460718837,gps,0,0,47.3961067199707,8.648130416870117,0.0,0.0,0.0,0.0,0.0,0.0,0.0,0.0,0.0,0.0,0
1494414858.5605776,0,1494414858,560577566,gps,0,0,47.3961067199707,8.648130416870117,0.0,0.0,0.0,0.0,0.0,0.0,0.0,0.0,0.0,0.0,0
1494414858.6606412,0,1494414858,660641157,gps,0,0,47.3961067199707,8.648130416870117,0.0,0.0,0.0,0.0,0.0,0.0,0.0,0.0,0.0,0.0,0
1494414858.7607944,0,1494414858,760794392,gps,0,0,47.3961067199707,8.648130416870117,0.0,0.0,0.0,0.0,0.0,0.0,0.0,0.0,0.0,0.0,0
1494414858.8605528,0,1494414858,860552670,gps,0,0,47.3961067199707,8.648131370544434,0.0,0.0,0.0,0.0,0.0,0.0,0.0,0.0,0.0,0.0,0
1494414858.9605546,0,1494414858,960554517,gps,0,0,47.3961067199707,8.648131370544434,0.0,0.0,0.0,0.0,0.0,0.0,0.0,0.0,0.0,0.0,0
1494414859.0605497,0,1494414859,60549829,gps,0,0,47.3961067199707,8.648131370544434,0.0,0.0,0.0,0.0,0.0,0.0,0.0,0.0,0.0,0.0,0
1494414859.1608534,0,1494414859,160853331,gps,0,0,47.3961067199707,8.648131370544434,0.0,0.0,0.0,0.0,0.0,0.0,0.0,0.0,0.0,0.0,0
1494414859.2605066,0,1494414859,260506601,gps,0,0,47.3961067199707,8.648131370544434,0.0,0.0,0.0,0.0,0.0,0.0,0.0,0.0,0.0,0.0,0
1494414859.3605282,0,1494414859,360528210,gps,0,0,47.3961067199707,8.648131370544434,0.0,0.0,0.0,0.0,0.0,0.0,0.0,0.0,0.0,0.0,0
1494414859.4605331,0,1494414859,460533054,gps,0,0,47.3961067199707,8.648131370544434,0.0,0.0,0.0,0.0,0.0,0.0,0.0,0.0,0.0,0.0,0
1494414859.5605671,0,1494414859,560567087,gps,0,0,47.3961067199707,8.648131370544434,0.0,0.0,0.0,0.0,0.0,0.0,0.0,0.0,0.0,0.0,0
1494414859.6605654,0,1494414859,660565386,gps,0,0,47.3961067199707,8.648131370544434,0.0,0.0,0.0,0.0,0.0,0.0,0.0,0.0,0.0,0.0,0
1494414859.7605686,0,1494414859,760568669,gps,0,0,47.3961067199707,8.648131370544434,0.0,0.0,0.0,0.0,0.0,0.0,0.0,0.0,0.0,0.0,0
1494414859.8605835,0,1494414859,860583604,gps,0,0,47.3961067199707,8.648131370544434,0.0,0.0,0.0,0.0,0.0,0.0,0.0,0.0,0.0,0.0,0
1494414859.9605465,0,1494414859,960546519,gps,0,0,47.3961067199707,8.648131370544434,0.0,0.0,0.0,0.0,0.0,0.0,0.0,0.0,0.0,0.0,0
1494414860.0604959,0,1494414860,60495912,gps,0,0,47.3961067199707,8.648131370544434,0.0,0.0,0.0,0.0,0.0,0.0,0.0,0.0,0.0,0.0,0
1494414860.1609325,0,1494414860,160932459,gps,0,0,47.3961067199707,8.648131370544434,0.0,0.0,0.0,0.0,0.0,0.0,0.0,0.0,0.0,0.0,0
1494414860.26056,0,1494414860,260559999,gps,0,0,47.3961067199707,8.648131370544434,0.0,0.0,0.0,0.0,0.0,0.0,0.0,0.0,0.0,0.0,0
1494414860.360606,0,1494414860,360606004,gps,0,0,47.3961067199707,8.648131370544434,0.0,0.0,0.0,0.0,0.0,0.0,0.0,0.0,0.0,0.0,0
1494414860.4605062,0,1494414860,460506124,gps,0,0,47.3961067199707,8.648131370544434,0.0,0.0,0.0,0.0,0.0,0.0,0.0,0.0,0.0,0.0,0
1494414860.5605273,0,1494414860,560527367,gps,0,0,47.3961067199707,8.648131370544434,0.0,0.0,0.0,0.0,0.0,0.0,0.0,0.0,0.0,0.0,0
1494414860.6605327,0,1494414860,660532679,gps,0,0,47.3961067199707,8.648131370544434,0.0,0.0,0.0,0.0,0.0,0.0,0.0,0.0,0.0,0.0,0
1494414860.760526,0,1494414860,760525925,gps,0,0,47.3961067199707,8.648131370544434,0.0,0.0,0.0,0.0,0.0,0.0,0.0,0.0,0.0,0.0,0
1494414860.8605793,0,1494414860,860579189,gps,0,0,47.3961067199707,8.648131370544434,0.0,0.0,0.0,0.0,0.0,0.0,0.0,0.0,0.0,0.0,0
1494414860.9605112,0,1494414860,960511216,gps,0,0,47.3961067199707,8.648131370544434,0.0,0.0,0.0,0.0,0.0,0.0,0.0,0.0,0.0,0.0,0
1494414861.0605173,0,1494414861,60517331,gps,0,0,47.3961067199707,8.648131370544434,0.0,0.0,0.0,0.0,0.0,0.0,0.0,0.0,0.0,0.0,0
1494414861.1608574,0,1494414861,160857536,gps,0,0,47.3961067199707,8.648131370544434,0.0,0.0,0.0,0.0,0.0,0.0,0.0,0.0,0.0,0.0,0
1494414861.2604573,0,1494414861,260457319,gps,0,0,47.3961067199707,8.648131370544434,0.0,0.0,0.0,0.0,0.0,0.0,0.0,0.0,0.0,0.0,0
1494414861.3604953,0,1494414861,360495358,gps,0,0,47.3961067199707,8.648131370544434,0.0,0.0,0.0,0.0,0.0,0.0,0.0,0.0,0.0,0.0,0
1494414861.460466,0,1494414861,460465811,gps,0,0,47.3961067199707,8.648131370544434,0.0,0.0,0.0,0.0,0.0,0.0,0.0,0.0,0.0,0.0,0
1494414861.5604336,0,1494414861,560433743,gps,0,0,47.3961067199707,8.648131370544434,0.0,0.0,0.0,0.0,0.0,0.0,0.0,0.0,0.0,0.0,0
1494414861.6604593,0,1494414861,660459283,gps,0,0,47.3961067199707,8.648131370544434,0.0,0.0,0.0,0.0,0.0,0.0,0.0,0.0,0.0,0.0,0
1494414861.7604733,0,1494414861,760473243,gps,0,0,47.3961067199707,8.648131370544434,0.0,0.0,0.0,0.0,0.0,0.0,0.0,0.0,0.0,0.0,0
1494414861.8604634,0,1494414861,860463469,gps,0,0,47.3961067199707,8.648131370544434,0.0,0.0,0.0,0.0,0.0,0.0,0.0,0.0,0.0,0.0,0
1494414861.9605165,0,1494414861,960516342,gps,0,0,47.3961067199707,8.648131370544434,0.0,0.0,0.0,0.0,0.0,0.0,0.0,0.0,0.0,0.0,0
1494414862.0604703,0,1494414862,60470368,gps,0,0,47.3961067199707,8.648131370544434,0.0,0.0,0.0,0.0,0.0,0.0,0.0,0.0,0.0,0.0,0
1494414862.1608849,0,1494414862,160884815,gps,0,0,47.3961067199707,8.648131370544434,0.0,0.0,0.0,0.0,0.0,0.0,0.0,0.0,0.0,0.0,0
1494414862.2604527,0,1494414862,260452679,gps,0,0,47.3961067199707,8.648131370544434,0.0,0.0,0.0,0.0,0.0,0.0,0.0,0.0,0.0,0.0,0
1494414862.360427,0,1494414862,360426928,gps,0,0,47.3961067199707,8.648131370544434,0.0,0.0,0.0,0.0,0.0,0.0,0.0,0.0,0.0,0.0,0
1494414862.4604716,0,1494414862,460471718,gps,0,0,47.3961067199707,8.648131370544434,0.0,0.0,0.0,0.0,0.0,0.0,0.0,0.0,0.0,0.0,0
1494414862.560544,0,1494414862,560543979,gps,0,0,47.3961067199707,8.648131370544434,0.0,0.0,0.0,0.0,0.0,0.0,0.0,0.0,0.0,0.0,0
1494414862.660447,0,1494414862,660446854,gps,0,0,47.3961067199707,8.648131370544434,0.0,0.0,0.0,0.0,0.0,0.0,0.0,0.0,0.0,0.0,0
1494414862.760445,0,1494414862,760445033,gps,0,0,47.3961067199707,8.648131370544434,0.0,0.0,0.0,0.0,0.0,0.0,0.0,0.0,0.0,0.0,0
1494414862.8604808,0,1494414862,860480878,gps,0,0,47.3961067199707,8.648131370544434,0.0,0.0,0.0,0.0,0.0,0.0,0.0,0.0,0.0,0.0,0
1494414862.960415,0,1494414862,960414793,gps,0,0,47.3961067199707,8.648131370544434,0.0,0.0,0.0,0.0,0.0,0.0,0.0,0.0,0.0,0.0,0
1494414863.0604763,0,1494414863,60476372,gps,0,0,47.3961067199707,8.648131370544434,0.0,0.0,0.0,0.0,0.0,0.0,0.0,0.0,0.0,0.0,0
1494414863.1607826,0,1494414863,160782488,gps,0,0,47.3961067199707,8.648131370544434,0.0,0.0,0.0,0.0,0.0,0.0,0.0,0.0,0.0,0.0,0
1494414863.2604728,0,1494414863,260472807,gps,0,0,47.3961067199707,8.648131370544434,0.0,0.0,0.0,0.0,0.0,0.0,0.0,0.0,0.0,0.0,0
1494414863.3604748,0,1494414863,360474889,gps,0,0,47.3961067199707,8.648131370544434,0.0,0.0,0.0,0.0,0.0,0.0,0.0,0.0,0.0,0.0,0
1494414863.4604516,0,1494414863,460451504,gps,0,0,47.3961067199707,8.648131370544434,0.0,0.0,0.0,0.0,0.0,0.0,0.0,0.0,0.0,0.0,0
1494414863.5604837,0,1494414863,560483719,gps,0,0,47.3961067199707,8.648131370544434,0.0,0.0,0.0,0.0,0.0,0.0,0.0,0.0,0.0,0.0,0
1494414863.6604948,0,1494414863,660494854,gps,0,0,47.3961067199707,8.648131370544434,0.0,0.0,0.0,0.0,0.0,0.0,0.0,0.0,0.0,0.0,0
1494414863.7605026,0,1494414863,760502663,gps,0,0,47.3961067199707,8.648131370544434,0.0,0.0,0.0,0.0,0.0,0.0,0.0,0.0,0.0,0.0,0
1494414863.8606908,0,1494414863,860690863,gps,0,0,47.3961067199707,8.648130416870117,0.0,0.0,0.0,0.0,0.0,0.0,0.0,0.0,0.0,0.0,0
1494414863.9604542,0,1494414863,960454161,gps,0,0,47.3961067199707,8.648130416870117,0.0,0.0,0.0,0.0,0.0,0.0,0.0,0.0,0.0,0.0,0
1494414864.0604298,0,1494414864,60429754,gps,0,0,47.3961067199707,8.648130416870117,0.0,0.0,0.0,0.0,0.0,0.0,0.0,0.0,0.0,0.0,0
1494414864.1607947,0,1494414864,160794711,gps,0,0,47.3961067199707,8.648130416870117,0.0,0.0,0.0,0.0,0.0,0.0,0.0,0.0,0.0,0.0,0
1494414864.2603946,0,1494414864,260394496,gps,0,0,47.3961067199707,8.648130416870117,0.0,0.0,0.0,0.0,0.0,0.0,0.0,0.0,0.0,0.0,0
1494414864.3604126,0,1494414864,360412657,gps,0,0,47.3961067199707,8.648130416870117,0.0,0.0,0.0,0.0,0.0,0.0,0.0,0.0,0.0,0.0,0
1494414864.4606857,0,1494414864,460685831,gps,0,0,47.3961067199707,8.648130416870117,0.0,0.0,0.0,0.0,0.0,0.0,0.0,0.0,0.0,0.0,0
1494414864.5604548,0,1494414864,560454860,gps,0,0,47.3961067199707,8.648130416870117,0.0,0.0,0.0,0.0,0.0,0.0,0.0,0.0,0.0,0.0,0
1494414864.6603894,0,1494414864,660389491,gps,0,0,47.3961067199707,8.648130416870117,0.0,0.0,0.0,0.0,0.0,0.0,0.0,0.0,0.0,0.0,0
1494414864.760397,0,1494414864,760396984,gps,0,0,47.3961067199707,8.648130416870117,0.0,0.0,0.0,0.0,0.0,0.0,0.0,0.0,0.0,0.0,0
1494414864.8603806,0,1494414864,860380638,gps,0,0,47.3961067199707,8.648130416870117,0.0,0.0,0.0,0.0,0.0,0.0,0.0,0.0,0.0,0.0,0
1494414864.9604666,0,1494414864,960466603,gps,0,0,47.3961067199707,8.648130416870117,0.0,0.0,0.0,0.0,0.0,0.0,0.0,0.0,0.0,0.0,0
1494414865.0604002,0,1494414865,60400245,gps,0,0,47.3961067199707,8.648130416870117,0.0,0.0,0.0,0.0,0.0,0.0,0.0,0.0,0.0,0.0,0
1494414865.1607554,0,1494414865,160755485,gps,0,0,47.3961067199707,8.648130416870117,0.0,0.0,0.0,0.0,0.0,0.0,0.0,0.0,0.0,0.0,0
1494414865.2604306,0,1494414865,260430660,gps,0,0,47.3961067199707,8.648130416870117,0.0,0.0,0.0,0.0,0.0,0.0,0.0,0.0,0.0,0.0,0
1494414865.3603837,0,1494414865,360383851,gps,0,0,47.3961067199707,8.648130416870117,0.0,0.0,0.0,0.0,0.0,0.0,0.0,0.0,0.0,0.0,0
1494414865.4604132,0,1494414865,460413255,gps,0,0,47.3961067199707,8.648130416870117,0.0,0.0,0.0,0.0,0.0,0.0,0.0,0.0,0.0,0.0,0
1494414865.5604072,0,1494414865,560407092,gps,0,0,47.3961067199707,8.648130416870117,0.0,0.0,0.0,0.0,0.0,0.0,0.0,0.0,0.0,0.0,0
1494414865.6603832,0,1494414865,660383126,gps,0,0,47.3961067199707,8.648130416870117,0.0,0.0,0.0,0.0,0.0,0.0,0.0,0.0,0.0,0.0,0
1494414865.7603652,0,1494414865,760365245,gps,0,0,47.3961067199707,8.648130416870117,0.0,0.0,0.0,0.0,0.0,0.0,0.0,0.0,0.0,0.0,0
1494414865.8603756,0,1494414865,860375565,gps,0,0,47.3961067199707,8.648130416870117,0.0,0.0,0.0,0.0,0.0,0.0,0.0,0.0,0.0,0.0,0
1494414865.9604418,0,1494414865,960441894,gps,0,0,47.3961067199707,8.648130416870117,0.0,0.0,0.0,0.0,0.0,0.0,0.0,0.0,0.0,0.0,0
1494414866.0604312,0,1494414866,60431269,gps,0,0,47.3961067199707,8.648130416870117,0.0,0.0,0.0,0.0,0.0,0.0,0.0,0.0,0.0,0.0,0
1494414866.1607704,0,1494414866,160770401,gps,0,0,47.3961067199707,8.648130416870117,0.0,0.0,0.0,0.0,0.0,0.0,0.0,0.0,0.0,0.0,0
1494414866.2604218,0,1494414866,260421683,gps,0,0,47.3961067199707,8.648130416870117,0.0,0.0,0.0,0.0,0.0,0.0,0.0,0.0,0.0,0.0,0
1494414866.36037,0,1494414866,360369931,gps,0,0,47.3961067199707,8.648130416870117,0.0,0.0,0.0,0.0,0.0,0.0,0.0,0.0,0.0,0.0,0
1494414866.4603484,0,1494414866,460348302,gps,0,0,47.3961067199707,8.648130416870117,0.0,0.0,0.0,0.0,0.0,0.0,0.0,0.0,0.0,0.0,0
1494414866.560366,0,1494414866,560365871,gps,0,0,47.3961067199707,8.648130416870117,0.0,0.0,0.0,0.0,0.0,0.0,0.0,0.0,0.0,0.0,0
1494414866.6603668,0,1494414866,660366843,gps,0,0,47.3961067199707,8.6481294631958,0.0,0.0,0.0,0.0,0.0,0.0,0.0,0.0,0.0,0.0,0
1494414866.760339,0,1494414866,760338916,gps,0,0,47.3961067199707,8.6481294631958,0.0,0.0,0.0,0.0,0.0,0.0,0.0,0.0,0.0,0.0,0
1494414866.8603692,0,1494414866,860369089,gps,0,0,47.3961067199707,8.6481294631958,0.0,0.0,0.0,0.0,0.0,0.0,0.0,0.0,0.0,0.0,0
1494414866.9603486,0,1494414866,960348576,gps,0,0,47.3961067199707,8.6481294631958,0.0,0.0,0.0,0.0,0.0,0.0,0.0,0.0,0.0,0.0,0
1494414867.0603707,0,1494414867,60370710,gps,0,0,47.3961067199707,8.6481294631958,0.0,0.0,0.0,0.0,0.0,0.0,0.0,0.0,0.0,0.0,0
1494414867.160722,0,1494414867,160721973,gps,0,0,47.3961067199707,8.6481294631958,0.0,0.0,0.0,0.0,0.0,0.0,0.0,0.0,0.0,0.0,0
1494414867.2604132,0,1494414867,260413116,gps,0,0,47.3961067199707,8.6481294631958,0.0,0.0,0.0,0.0,0.0,0.0,0.0,0.0,0.0,0.0,0
1494414867.3603823,0,1494414867,360382316,gps,0,0,47.3961067199707,8.6481294631958,0.0,0.0,0.0,0.0,0.0,0.0,0.0,0.0,0.0,0.0,0
1494414867.460339,0,1494414867,460339153,gps,0,0,47.3961067199707,8.6481294631958,0.0,0.0,0.0,0.0,0.0,0.0,0.0,0.0,0.0,0.0,0
1494414867.5603976,0,1494414867,560397571,gps,0,0,47.3961067199707,8.6481294631958,0.0,0.0,0.0,0.0,0.0,0.0,0.0,0.0,0.0,0.0,0
1494414867.6603377,0,1494414867,660337645,gps,0,0,47.3961067199707,8.6481294631958,0.0,0.0,0.0,0.0,0.0,0.0,0.0,0.0,0.0,0.0,0
1494414867.7603364,0,1494414867,760336414,gps,0,0,47.3961067199707,8.6481294631958,0.0,0.0,0.0,0.0,0.0,0.0,0.0,0.0,0.0,0.0,0
1494414867.8603141,0,1494414867,860314229,gps,0,0,47.3961067199707,8.6481294631958,0.0,0.0,0.0,0.0,0.0,0.0,0.0,0.0,0.0,0.0,0
1494414867.960327,0,1494414867,960326980,gps,0,0,47.3961067199707,8.6481294631958,0.0,0.0,0.0,0.0,0.0,0.0,0.0,0.0,0.0,0.0,0
1494414868.0602937,0,1494414868,60293675,gps,0,0,47.3961067199707,8.6481294631958,0.0,0.0,0.0,0.0,0.0,0.0,0.0,0.0,0.0,0.0,0
1494414868.1607199,0,1494414868,160719768,gps,0,0,47.3961067199707,8.6481294631958,0.0,0.0,0.0,0.0,0.0,0.0,0.0,0.0,0.0,0.0,0
1494414868.2603478,0,1494414868,260347846,gps,0,0,47.3961067199707,8.6481294631958,0.0,0.0,0.0,0.0,0.0,0.0,0.0,0.0,0.0,0.0,0
1494414868.3603497,0,1494414868,360349561,gps,0,0,47.3961067199707,8.6481294631958,0.0,0.0,0.0,0.0,0.0,0.0,0.0,0.0,0.0,0.0,0
1494414868.4603481,0,1494414868,460348226,gps,0,0,47.3961067199707,8.6481294631958,0.0,0.0,0.0,0.0,0.0,0.0,0.0,0.0,0.0,0.0,0
1494414868.560382,0,1494414868,560381772,gps,0,0,47.3961067199707,8.6481294631958,0.0,0.0,0.0,0.0,0.0,0.0,0.0,0.0,0.0,0.0,0
1494414868.6602573,0,1494414868,660257233,gps,0,0,47.3961067199707,8.6481294631958,0.0,0.0,0.0,0.0,0.0,0.0,0.0,0.0,0.0,0.0,0
1494414868.7603617,0,1494414868,760361750,gps,0,0,47.3961067199707,8.6481294631958,0.0,0.0,0.0,0.0,0.0,0.0,0.0,0.0,0.0,0.0,0
1494414868.8603632,0,1494414868,860363162,gps,0,0,47.3961067199707,8.6481294631958,0.0,0.0,0.0,0.0,0.0,0.0,0.0,0.0,0.0,0.0,0
1494414868.9603198,0,1494414868,960319773,gps,0,0,47.3961067199707,8.6481294631958,0.0,0.0,0.0,0.0,0.0,0.0,0.0,0.0,0.0,0.0,0
1494414869.0602424,0,1494414869,60242470,gps,0,0,47.3961067199707,8.6481294631958,0.0,0.0,0.0,0.0,0.0,0.0,0.0,0.0,0.0,0.0,0
1494414869.160703,0,1494414869,160703023,gps,0,0,47.3961067199707,8.6481294631958,0.0,0.0,0.0,0.0,0.0,0.0,0.0,0.0,0.0,0.0,0
1494414869.260259,0,1494414869,260258917,gps,0,0,47.3961067199707,8.6481294631958,0.0,0.0,0.0,0.0,0.0,0.0,0.0,0.0,0.0,0.0,0
1494414869.3603451,0,1494414869,360345210,gps,0,0,47.3961067199707,8.6481294631958,0.0,0.0,0.0,0.0,0.0,0.0,0.0,0.0,0.0,0.0,0
1494414869.4602582,0,1494414869,460258145,gps,0,0,47.3961067199707,8.648128509521484,0.0,0.0,0.0,0.0,0.0,0.0,0.0,0.0,0.0,0.0,0
1494414869.5603237,0,1494414869,560323675,gps,0,0,47.3961067199707,8.648128509521484,0.0,0.0,0.0,0.0,0.0,0.0,0.0,0.0,0.0,0.0,0
1494414869.6602964,0,1494414869,660296412,gps,0,0,47.3961067199707,8.648128509521484,0.0,0.0,0.0,0.0,0.0,0.0,0.0,0.0,0.0,0.0,0
1494414869.760359,0,1494414869,760358997,gps,0,0,47.3961067199707,8.648128509521484,0.0,0.0,0.0,0.0,0.0,0.0,0.0,0.0,0.0,0.0,0
1494414869.8602781,0,1494414869,860278066,gps,0,0,47.3961067199707,8.648128509521484,0.0,0.0,0.0,0.0,0.0,0.0,0.0,0.0,0.0,0.0,0
1494414869.9602754,0,1494414869,960275528,gps,0,0,47.3961067199707,8.648128509521484,0.0,0.0,0.0,0.0,0.0,0.0,0.0,0.0,0.0,0.0,0
1494414870.0602593,0,1494414870,60259345,gps,0,0,47.3961067199707,8.648128509521484,0.0,0.0,0.0,0.0,0.0,0.0,0.0,0.0,0.0,0.0,0
1494414870.1606605,0,1494414870,160660506,gps,0,0,47.3961067199707,8.648128509521484,0.0,0.0,0.0,0.0,0.0,0.0,0.0,0.0,0.0,0.0,0
1494414870.2603111,0,1494414870,260311149,gps,0,0,47.3961067199707,8.648128509521484,0.0,0.0,0.0,0.0,0.0,0.0,0.0,0.0,0.0,0.0,0
1494414870.360274,0,1494414870,360274010,gps,0,0,47.3961067199707,8.648128509521484,0.0,0.0,0.0,0.0,0.0,0.0,0.0,0.0,0.0,0.0,0
1494414870.460294,0,1494414870,460293992,gps,0,0,47.3961067199707,8.648128509521484,0.0,0.0,0.0,0.0,0.0,0.0,0.0,0.0,0.0,0.0,0
1494414870.5602925,0,1494414870,560292384,gps,0,0,47.3961067199707,8.648128509521484,0.0,0.0,0.0,0.0,0.0,0.0,0.0,0.0,0.0,0.0,0
1494414870.6602693,0,1494414870,660269286,gps,0,0,47.3961067199707,8.648128509521484,0.0,0.0,0.0,0.0,0.0,0.0,0.0,0.0,0.0,0.0,0
1494414870.7602766,0,1494414870,760276444,gps,0,0,47.3961067199707,8.648128509521484,0.0,0.0,0.0,0.0,0.0,0.0,0.0,0.0,0.0,0.0,0
1494414870.86027,0,1494414870,860270010,gps,0,0,47.3961067199707,8.648128509521484,0.0,0.0,0.0,0.0,0.0,0.0,0.0,0.0,0.0,0.0,0
1494414870.9602652,0,1494414870,960265239,gps,0,0,47.3961067199707,8.648128509521484,0.0,0.0,0.0,0.0,0.0,0.0,0.0,0.0,0.0,0.0,0
1494414871.060265,0,1494414871,60265052,gps,0,0,47.3961067199707,8.648128509521484,0.0,0.0,0.0,0.0,0.0,0.0,0.0,0.0,0.0,0.0,0
1494414871.1605837,0,1494414871,160583696,gps,0,0,47.3961067199707,8.648128509521484,0.0,0.0,0.0,0.0,0.0,0.0,0.0,0.0,0.0,0.0,0
1494414871.2602496,0,1494414871,260249501,gps,0,0,47.3961067199707,8.648128509521484,0.0,0.0,0.0,0.0,0.0,0.0,0.0,0.0,0.0,0.0,0
1494414871.3603215,0,1494414871,360321600,gps,0,0,47.3961067199707,8.648128509521484,0.0,0.0,0.0,0.0,0.0,0.0,0.0,0.0,0.0,0.0,0
1494414871.460261,0,1494414871,460261045,gps,0,0,47.3961067199707,8.648128509521484,0.0,0.0,0.0,0.0,0.0,0.0,0.0,0.0,0.0,0.0,0
1494414871.560224,0,1494414871,560224126,gps,0,0,47.3961067199707,8.648128509521484,0.0,0.0,0.0,0.0,0.0,0.0,0.0,0.0,0.0,0.0,0
1494414871.660239,0,1494414871,660238910,gps,0,0,47.3961067199707,8.648128509521484,0.0,0.0,0.0,0.0,0.0,0.0,0.0,0.0,0.0,0.0,0
1494414871.760262,0,1494414871,760262022,gps,0,0,47.3961067199707,8.648128509521484,0.0,0.0,0.0,0.0,0.0,0.0,0.0,0.0,0.0,0.0,0
1494414871.8602076,0,1494414871,860207573,gps,0,0,47.3961067199707,8.648128509521484,0.0,0.0,0.0,0.0,0.0,0.0,0.0,0.0,0.0,0.0,0
1494414871.960222,0,1494414871,960222104,gps,0,0,47.3961067199707,8.648128509521484,0.0,0.0,0.0,0.0,0.0,0.0,0.0,0.0,0.0,0.0,0
1494414872.060186,0,1494414872,60186001,gps,0,0,47.3961067199707,8.648128509521484,0.0,0.0,0.0,0.0,0.0,0.0,0.0,0.0,0.0,0.0,0
1494414872.16059,0,1494414872,160590030,gps,0,0,47.3961067199707,8.648128509521484,0.0,0.0,0.0,0.0,0.0,0.0,0.0,0.0,0.0,0.0,0
1494414872.2602766,0,1494414872,260276443,gps,0,0,47.3961067199707,8.648128509521484,0.0,0.0,0.0,0.0,0.0,0.0,0.0,0.0,0.0,0.0,0
1494414872.3602288,0,1494414872,360228887,gps,0,0,47.3961067199707,8.648128509521484,0.0,0.0,0.0,0.0,0.0,0.0,0.0,0.0,0.0,0.0,0
1494414872.4601793,0,1494414872,460179281,gps,0,0,47.3961067199707,8.648128509521484,0.0,0.0,0.0,0.0,0.0,0.0,0.0,0.0,0.0,0.0,0
1494414872.5602152,0,1494414872,560215242,gps,0,0,47.3961067199707,8.648128509521484,0.0,0.0,0.0,0.0,0.0,0.0,0.0,0.0,0.0,0.0,0
1494414872.6601918,0,1494414872,660191813,gps,0,0,47.3961067199707,8.648128509521484,0.0,0.0,0.0,0.0,0.0,0.0,0.0,0.0,0.0,0.0,0
1494414872.7602587,0,1494414872,760258563,gps,0,0,47.3961067199707,8.648128509521484,0.0,0.0,0.0,0.0,0.0,0.0,0.0,0.0,0.0,0.0,0
1494414872.8602343,0,1494414872,860234255,gps,0,0,47.3961067199707,8.648128509521484,0.0,0.0,0.0,0.0,0.0,0.0,0.0,0.0,0.0,0.0,0
1494414872.9602,0,1494414872,960200100,gps,0,0,47.3961067199707,8.648128509521484,0.0,0.0,0.0,0.0,0.0,0.0,0.0,0.0,0.0,0.0,0
1494414873.0600994,0,1494414873,60099351,gps,0,0,47.3961067199707,8.648128509521484,0.0,0.0,0.0,0.0,0.0,0.0,0.0,0.0,0.0,0.0,0
1494414873.1605604,0,1494414873,160560310,gps,0,0,47.3961067199707,8.648128509521484,0.0,0.0,0.0,0.0,0.0,0.0,0.0,0.0,0.0,0.0,0
1494414873.2601576,0,1494414873,260157550,gps,0,0,47.3961067199707,8.648128509521484,0.0,0.0,0.0,0.0,0.0,0.0,0.0,0.0,0.0,0.0,0
1494414873.360238,0,1494414873,360237992,gps,0,0,47.3961067199707,8.648128509521484,0.0,0.0,0.0,0.0,0.0,0.0,0.0,0.0,0.0,0.0,0
1494414873.4602005,0,1494414873,460200667,gps,0,0,47.3961067199707,8.648128509521484,0.0,0.0,0.0,0.0,0.0,0.0,0.0,0.0,0.0,0.0,0
1494414873.5601325,0,1494414873,560132487,gps,0,0,47.3961067199707,8.648128509521484,0.0,0.0,0.0,0.0,0.0,0.0,0.0,0.0,0.0,0.0,0
1494414873.6601143,0,1494414873,660114333,gps,0,0,47.3961067199707,8.648128509521484,0.0,0.0,0.0,0.0,0.0,0.0,0.0,0.0,0.0,0.0,0
1494414873.7601857,0,1494414873,760185700,gps,0,0,47.3961067199707,8.648128509521484,0.0,0.0,0.0,0.0,0.0,0.0,0.0,0.0,0.0,0.0,0
1494414873.8601663,0,1494414873,860166397,gps,0,0,47.3961067199707,8.648128509521484,0.0,0.0,0.0,0.0,0.0,0.0,0.0,0.0,0.0,0.0,0
1494414873.9602017,0,1494414873,960201755,gps,0,0,47.3961067199707,8.648128509521484,0.0,0.0,0.0,0.0,0.0,0.0,0.0,0.0,0.0,0.0,0
1494414874.0601566,0,1494414874,60156591,gps,0,0,47.3961067199707,8.648128509521484,0.0,0.0,0.0,0.0,0.0,0.0,0.0,0.0,0.0,0.0,0
1494414874.1605368,0,1494414874,160536745,gps,0,0,47.3961067199707,8.648128509521484,0.0,0.0,0.0,0.0,0.0,0.0,0.0,0.0,0.0,0.0,0
1494414874.2602012,0,1494414874,260201097,gps,0,0,47.3961067199707,8.648128509521484,0.0,0.0,0.0,0.0,0.0,0.0,0.0,0.0,0.0,0.0,0
1494414874.3602264,0,1494414874,360226356,gps,0,0,47.3961067199707,8.648128509521484,0.0,0.0,0.0,0.0,0.0,0.0,0.0,0.0,0.0,0.0,0
1494414874.4601793,0,1494414874,460179246,gps,0,0,47.3961067199707,8.648128509521484,0.0,0.0,0.0,0.0,0.0,0.0,0.0,0.0,0.0,0.0,0
1494414874.5602133,0,1494414874,560213394,gps,0,0,47.3961067199707,8.648128509521484,0.0,0.0,0.0,0.0,0.0,0.0,0.0,0.0,0.0,0.0,0
1494414874.6601348,0,1494414874,660134831,gps,0,0,47.3961067199707,8.648128509521484,0.0,0.0,0.0,0.0,0.0,0.0,0.0,0.0,0.0,0.0,0
1494414874.760152,0,1494414874,760152012,gps,0,0,47.3961067199707,8.648128509521484,0.0,0.0,0.0,0.0,0.0,0.0,0.0,0.0,0.0,0.0,0
1494414874.8600993,0,1494414874,860099312,gps,0,0,47.3961067199707,8.648128509521484,0.0,0.0,0.0,0.0,0.0,0.0,0.0,0.0,0.0,0.0,0
1494414874.9601738,0,1494414874,960173918,gps,0,0,47.3961067199707,8.648128509521484,0.0,0.0,0.0,0.0,0.0,0.0,0.0,0.0,0.0,0.0,0
1494414875.0602124,0,1494414875,60212298,gps,0,0,47.3961067199707,8.648128509521484,0.0,0.0,0.0,0.0,0.0,0.0,0.0,0.0,0.0,0.0,0
1494414875.1605604,0,1494414875,160560277,gps,0,0,47.3961067199707,8.648128509521484,0.0,0.0,0.0,0.0,0.0,0.0,0.0,0.0,0.0,0.0,0
1494414875.2601507,0,1494414875,260150779,gps,0,0,47.3961067199707,8.648128509521484,0.0,0.0,0.0,0.0,0.0,0.0,0.0,0.0,0.0,0.0,0
1494414875.3600905,0,1494414875,360090379,gps,0,0,47.3961067199707,8.648128509521484,0.0,0.0,0.0,0.0,0.0,0.0,0.0,0.0,0.0,0.0,0
1494414875.4603972,0,1494414875,460397317,gps,0,0,47.3961067199707,8.648128509521484,0.0,0.0,0.0,0.0,0.0,0.0,0.0,0.0,0.0,0.0,0
1494414875.5602303,0,1494414875,560230172,gps,0,0,47.3961067199707,8.648128509521484,0.0,0.0,0.0,0.0,0.0,0.0,0.0,0.0,0.0,0.0,0
1494414875.660108,0,1494414875,660108162,gps,0,0,47.3961067199707,8.648128509521484,0.0,0.0,0.0,0.0,0.0,0.0,0.0,0.0,0.0,0.0,0
1494414875.7600844,0,1494414875,760084400,gps,0,0,47.3961067199707,8.648128509521484,0.0,0.0,0.0,0.0,0.0,0.0,0.0,0.0,0.0,0.0,0
1494414875.860173,0,1494414875,860172974,gps,0,0,47.3961067199707,8.648128509521484,0.0,0.0,0.0,0.0,0.0,0.0,0.0,0.0,0.0,0.0,0
1494414875.9600585,0,1494414875,960058464,gps,0,0,47.3961067199707,8.648128509521484,0.0,0.0,0.0,0.0,0.0,0.0,0.0,0.0,0.0,0.0,0
1494414876.0600965,0,1494414876,60096397,gps,0,0,47.3961067199707,8.648128509521484,0.0,0.0,0.0,0.0,0.0,0.0,0.0,0.0,0.0,0.0,0
1494414876.1604588,0,1494414876,160458800,gps,0,0,47.3961067199707,8.648128509521484,0.0,0.0,0.0,0.0,0.0,0.0,0.0,0.0,0.0,0.0,0
1494414876.2600946,0,1494414876,260094590,gps,0,0,47.3961067199707,8.648128509521484,0.0,0.0,0.0,0.0,0.0,0.0,0.0,0.0,0.0,0.0,0
1494414876.3602097,0,1494414876,360209705,gps,0,0,47.3961067199707,8.648128509521484,0.0,0.0,0.0,0.0,0.0,0.0,0.0,0.0,0.0,0.0,0
1494414876.4601016,0,1494414876,460101584,gps,0,0,47.3961067199707,8.648128509521484,0.0,0.0,0.0,0.0,0.0,0.0,0.0,0.0,0.0,0.0,0
1494414876.5601146,0,1494414876,560114544,gps,0,0,47.3961067199707,8.648128509521484,0.0,0.0,0.0,0.0,0.0,0.0,0.0,0.0,0.0,0.0,0
1494414876.6602097,0,1494414876,660209632,gps,0,0,47.3961067199707,8.648128509521484,0.0,0.0,0.0,0.0,0.0,0.0,0.0,0.0,0.0,0.0,0
1494414876.7600574,0,1494414876,760057541,gps,0,0,47.3961067199707,8.648128509521484,0.0,0.0,0.0,0.0,0.0,0.0,0.0,0.0,0.0,0.0,0
1494414876.8600705,0,1494414876,860070453,gps,0,0,47.3961067199707,8.648128509521484,0.0,0.0,0.0,0.0,0.0,0.0,0.0,0.0,0.0,0.0,0
1494414876.9602494,0,1494414876,960249342,gps,0,0,47.3961067199707,8.648128509521484,0.0,0.0,0.0,0.0,0.0,0.0,0.0,0.0,0.0,0.0,0
1494414877.0601625,0,1494414877,60162522,gps,0,0,47.3961067199707,8.648128509521484,0.0,0.0,0.0,0.0,0.0,0.0,0.0,0.0,0.0,0.0,0
1494414877.1605065,0,1494414877,160506409,gps,0,0,47.3961067199707,8.648128509521484,0.0,0.0,0.0,0.0,0.0,0.0,0.0,0.0,0.0,0.0,0
1494414877.260182,0,1494414877,260181878,gps,0,0,47.3961067199707,8.648128509521484,0.0,0.0,0.0,0.0,0.0,0.0,0.0,0.0,0.0,0.0,0
1494414877.3601878,0,1494414877,360187670,gps,0,0,47.3961067199707,8.648128509521484,0.0,0.0,0.0,0.0,0.0,0.0,0.0,0.0,0.0,0.0,0
1494414877.4600413,0,1494414877,460041293,gps,0,0,47.3961067199707,8.648128509521484,0.0,0.0,0.0,0.0,0.0,0.0,0.0,0.0,0.0,0.0,0
1494414877.5600874,0,1494414877,560087374,gps,0,0,47.3961067199707,8.648128509521484,0.0,0.0,0.0,0.0,0.0,0.0,0.0,0.0,0.0,0.0,0
1494414877.6600428,0,1494414877,660042692,gps,0,0,47.3961067199707,8.648128509521484,0.0,0.0,0.0,0.0,0.0,0.0,0.0,0.0,0.0,0.0,0
1494414877.7601328,0,1494414877,760132853,gps,0,0,47.3961067199707,8.648128509521484,0.0,0.0,0.0,0.0,0.0,0.0,0.0,0.0,0.0,0.0,0
1494414877.8601596,0,1494414877,860159590,gps,0,0,47.3961067199707,8.648128509521484,0.0,0.0,0.0,0.0,0.0,0.0,0.0,0.0,0.0,0.0,0
1494414877.9601152,0,1494414877,960115163,gps,0,0,47.3961067199707,8.648128509521484,0.0,0.0,0.0,0.0,0.0,0.0,0.0,0.0,0.0,0.0,0
1494414878.0601053,0,1494414878,60105266,gps,0,0,47.3961067199707,8.648128509521484,0.0,0.0,0.0,0.0,0.0,0.0,0.0,0.0,0.0,0.0,0
1494414878.160511,0,1494414878,160510913,gps,0,0,47.3961067199707,8.648128509521484,0.0,0.0,0.0,0.0,0.0,0.0,0.0,0.0,0.0,0.0,0
1494414878.2600899,0,1494414878,260089977,gps,0,0,47.3961067199707,8.648128509521484,0.0,0.0,0.0,0.0,0.0,0.0,0.0,0.0,0.0,0.0,0
1494414878.3601074,0,1494414878,360107446,gps,0,0,47.3961067199707,8.648128509521484,0.0,0.0,0.0,0.0,0.0,0.0,0.0,0.0,0.0,0.0,0
1494414878.460058,0,1494414878,460058079,gps,0,0,47.3961067199707,8.648128509521484,0.0,0.0,0.0,0.0,0.0,0.0,0.0,0.0,0.0,0.0,0
1494414878.5601087,0,1494414878,560108724,gps,0,0,47.3961067199707,8.648128509521484,0.0,0.0,0.0,0.0,0.0,0.0,0.0,0.0,0.0,0.0,0
1494414878.660105,0,1494414878,660105063,gps,0,0,47.3961067199707,8.648128509521484,0.0,0.0,0.0,0.0,0.0,0.0,0.0,0.0,0.0,0.0,0
1494414878.76016,0,1494414878,760159878,gps,0,0,47.3961067199707,8.648128509521484,0.0,0.0,0.0,0.0,0.0,0.0,0.0,0.0,0.0,0.0,0
1494414878.8601122,0,1494414878,860112100,gps,0,0,47.3961067199707,8.648128509521484,0.0,0.0,0.0,0.0,0.0,0.0,0.0,0.0,0.0,0.0,0
1494414878.9601521,0,1494414878,960152081,gps,0,0,47.3961067199707,8.648128509521484,0.0,0.0,0.0,0.0,0.0,0.0,0.0,0.0,0.0,0.0,0
1494414879.060157,0,1494414879,60157114,gps,0,0,47.3961067199707,8.648128509521484,0.0,0.0,0.0,0.0,0.0,0.0,0.0,0.0,0.0,0.0,0
1494414879.1604278,0,1494414879,160427754,gps,0,0,47.3961067199707,8.648128509521484,0.0,0.0,0.0,0.0,0.0,0.0,0.0,0.0,0.0,0.0,0
1494414879.2601204,0,1494414879,260120282,gps,0,0,47.3961067199707,8.648128509521484,0.0,0.0,0.0,0.0,0.0,0.0,0.0,0.0,0.0,0.0,0
1494414879.360071,0,1494414879,360071061,gps,0,0,47.3961067199707,8.648128509521484,0.0,0.0,0.0,0.0,0.0,0.0,0.0,0.0,0.0,0.0,0
1494414879.460154,0,1494414879,460154052,gps,0,0,47.3961067199707,8.648128509521484,0.0,0.0,0.0,0.0,0.0,0.0,0.0,0.0,0.0,0.0,0
1494414879.5601406,0,1494414879,560140518,gps,0,0,47.3961067199707,8.648128509521484,0.0,0.0,0.0,0.0,0.0,0.0,0.0,0.0,0.0,0.0,0
1494414879.660095,0,1494414879,660094929,gps,0,0,47.3961067199707,8.648128509521484,0.0,0.0,0.0,0.0,0.0,0.0,0.0,0.0,0.0,0.0,0
1494414879.7601094,0,1494414879,760109423,gps,0,0,47.3961067199707,8.648128509521484,0.0,0.0,0.0,0.0,0.0,0.0,0.0,0.0,0.0,0.0,0
1494414879.8601322,0,1494414879,860132259,gps,0,0,47.3961067199707,8.648128509521484,0.0,0.0,0.0,0.0,0.0,0.0,0.0,0.0,0.0,0.0,0
1494414879.9600723,0,1494414879,960072287,gps,0,0,47.3961067199707,8.648128509521484,0.0,0.0,0.0,0.0,0.0,0.0,0.0,0.0,0.0,0.0,0
1494414880.060085,0,1494414880,60085167,gps,0,0,47.3961067199707,8.648128509521484,0.0,0.0,0.0,0.0,0.0,0.0,0.0,0.0,0.0,0.0,0
1494414880.160404,0,1494414880,160404048,gps,0,0,47.3961067199707,8.648128509521484,0.0,0.0,0.0,0.0,0.0,0.0,0.0,0.0,0.0,0.0,0
1494414880.2600954,0,1494414880,260095282,gps,0,0,47.3961067199707,8.648128509521484,0.0,0.0,0.0,0.0,0.0,0.0,0.0,0.0,0.0,0.0,0
1494414880.360128,0,1494414880,360127858,gps,0,0,47.3961067199707,8.648128509521484,0.0,0.0,0.0,0.0,0.0,0.0,0.0,0.0,0.0,0.0,0
1494414880.460082,0,1494414880,460082034,gps,0,0,47.3961067199707,8.648128509521484,0.0,0.0,0.0,0.0,0.0,0.0,0.0,0.0,0.0,0.0,0
1494414880.560104,0,1494414880,560103789,gps,0,0,47.3961067199707,8.648128509521484,0.0,0.0,0.0,0.0,0.0,0.0,0.0,0.0,0.0,0.0,0
1494414880.6600964,0,1494414880,660096423,gps,0,0,47.3961067199707,8.648128509521484,0.0,0.0,0.0,0.0,0.0,0.0,0.0,0.0,0.0,0.0,0
1494414880.7601178,0,1494414880,760117731,gps,0,0,47.3961067199707,8.648128509521484,0.0,0.0,0.0,0.0,0.0,0.0,0.0,0.0,0.0,0.0,0
1494414880.8600678,0,1494414880,860067900,gps,0,0,47.3961067199707,8.648128509521484,0.0,0.0,0.0,0.0,0.0,0.0,0.0,0.0,0.0,0.0,0
1494414880.9600573,0,1494414880,960057350,gps,0,0,47.3961067199707,8.648128509521484,0.0,0.0,0.0,0.0,0.0,0.0,0.0,0.0,0.0,0.0,0
1494414881.0601296,0,1494414881,60129620,gps,0,0,47.3961067199707,8.648127555847168,0.0,0.0,0.0,0.0,0.0,0.0,0.0,0.0,0.0,0.0,0
1494414881.160363,0,1494414881,160363006,gps,0,0,47.3961067199707,8.648127555847168,0.0,0.0,0.0,0.0,0.0,0.0,0.0,0.0,0.0,0.0,0
1494414881.2600477,0,1494414881,260047624,gps,0,0,47.39610290527344,8.648126602172852,0.0,0.0,0.0,0.0,0.0,0.0,0.0,0.0,0.0,0.0,0
1494414881.360054,0,1494414881,360053995,gps,0,0,47.39610290527344,8.648126602172852,0.0,0.0,0.0,0.0,0.0,0.0,0.0,0.0,0.0,0.0,0
1494414881.4600163,0,1494414881,460016186,gps,0,0,47.39610290527344,8.648123741149902,0.0,0.0,0.0,0.0,0.0,0.0,0.0,0.0,0.0,0.0,0
1494414881.5601041,0,1494414881,560104200,gps,0,0,47.39610290527344,8.648123741149902,0.0,0.0,0.0,0.0,0.0,0.0,0.0,0.0,0.0,0.0,0
1494414881.6600177,0,1494414881,660017626,gps,0,0,47.39609909057617,8.64811897277832,0.0,0.0,0.0,0.0,0.0,0.0,0.0,0.0,0.0,0.0,0
1494414881.7600849,0,1494414881,760084924,gps,0,0,47.39609909057617,8.64811897277832,0.0,0.0,0.0,0.0,0.0,0.0,0.0,0.0,0.0,0.0,0
1494414881.860045,0,1494414881,860045060,gps,0,0,47.39609146118164,8.648113250732422,0.0,0.0,0.0,0.0,0.0,0.0,0.0,0.0,0.0,0.0,0
1494414881.9600754,0,1494414881,960075463,gps,0,0,47.39609146118164,8.648113250732422,0.0,0.0,0.0,0.0,0.0,0.0,0.0,0.0,0.0,0.0,0
1494414882.0600364,0,1494414882,60036540,gps,0,0,47.39609146118164,8.64810562133789,0.0,0.0,0.0,0.0,0.0,0.0,0.0,0.0,0.0,0.0,0
1494414882.1603131,0,1494414882,160313117,gps,0,0,47.39609146118164,8.64810562133789,0.0,0.0,0.0,0.0,0.0,0.0,0.0,0.0,0.0,0.0,0
1494414882.2599657,0,1494414882,259965606,gps,0,0,47.39608383178711,8.648096084594727,0.0,0.0,0.0,0.0,0.0,0.0,0.0,0.0,0.0,0.0,0
1494414882.3600907,0,1494414882,360090657,gps,0,0,47.39608383178711,8.648096084594727,0.0,0.0,0.0,0.0,0.0,0.0,0.0,0.0,0.0,0.0,0
1494414882.4600577,0,1494414882,460057706,gps,0,0,47.39607238769531,8.648083686828613,0.0,0.0,0.0,0.0,0.0,0.0,0.0,0.0,0.0,0.0,0
1494414882.5600717,0,1494414882,560071630,gps,0,0,47.39607238769531,8.648083686828613,0.0,0.0,0.0,0.0,0.0,0.0,0.0,0.0,0.0,0.0,0
1494414882.66004,0,1494414882,660039945,gps,0,0,47.39606857299805,8.648069381713867,0.0,0.0,0.0,0.0,0.0,0.0,0.0,0.0,0.0,0.0,0
1494414882.7599847,0,1494414882,759984757,gps,0,0,47.39606857299805,8.648069381713867,0.0,0.0,0.0,0.0,0.0,0.0,0.0,0.0,0.0,0.0,0
1494414882.8600116,0,1494414882,860011676,gps,0,0,47.39605712890625,8.648053169250488,0.0,0.0,0.0,0.0,0.0,0.0,0.0,0.0,0.0,0.0,0
1494414882.9600813,0,1494414882,960081303,gps,0,0,47.39605712890625,8.648053169250488,0.0,0.0,0.0,0.0,0.0,0.0,0.0,0.0,0.0,0.0,0
1494414883.0599728,0,1494414883,59972650,gps,0,0,47.396053314208984,8.648033142089844,0.0,0.0,0.0,0.0,0.0,0.0,0.0,0.0,0.0,0.0,0
1494414883.1602542,0,1494414883,160254127,gps,0,0,47.396053314208984,8.648033142089844,0.0,0.0,0.0,0.0,0.0,0.0,0.0,0.0,0.0,0.0,0
1494414883.2600644,0,1494414883,260064297,gps,0,0,47.39604568481445,8.648011207580566,0.0,0.0,0.0,0.0,0.0,0.0,0.0,0.0,0.0,0.0,0
1494414883.3600447,0,1494414883,360044637,gps,0,0,47.39604568481445,8.648011207580566,0.0,0.0,0.0,0.0,0.0,0.0,0.0,0.0,0.0,0.0,0
1494414883.460056,0,1494414883,460056035,gps,0,0,47.39604187011719,8.647989273071289,0.0,0.0,0.0,0.0,0.0,0.0,0.0,0.0,0.0,0.0,0
1494414883.5600646,0,1494414883,560064476,gps,0,0,47.39604187011719,8.647989273071289,0.0,0.0,0.0,0.0,0.0,0.0,0.0,0.0,0.0,0.0,0
1494414883.6600752,0,1494414883,660075084,gps,0,0,47.39603805541992,8.647967338562012,0.0,0.0,0.0,0.0,0.0,0.0,0.0,0.0,0.0,0.0,0
1494414883.7600203,0,1494414883,760020209,gps,0,0,47.39603805541992,8.647967338562012,0.0,0.0,0.0,0.0,0.0,0.0,0.0,0.0,0.0,0.0,0
1494414883.8599882,0,1494414883,859988277,gps,0,0,47.396034240722656,8.647944450378418,0.0,0.0,0.0,0.0,0.0,0.0,0.0,0.0,0.0,0.0,0
1494414883.960002,0,1494414883,960002005,gps,0,0,47.396034240722656,8.647944450378418,0.0,0.0,0.0,0.0,0.0,0.0,0.0,0.0,0.0,0.0,0
1494414884.06004,0,1494414884,60040054,gps,0,0,47.39602279663086,8.64792537689209,0.0,0.0,0.0,0.0,0.0,0.0,0.0,0.0,0.0,0.0,0
1494414884.160304,0,1494414884,160304072,gps,0,0,47.39602279663086,8.64792537689209,0.0,0.0,0.0,0.0,0.0,0.0,0.0,0.0,0.0,0.0,0
1494414884.260021,0,1494414884,260020978,gps,0,0,47.39601135253906,8.647908210754395,0.0,0.0,0.0,0.0,0.0,0.0,0.0,0.0,0.0,0.0,0
1494414884.3600101,0,1494414884,360010217,gps,0,0,47.39601135253906,8.647908210754395,0.0,0.0,0.0,0.0,0.0,0.0,0.0,0.0,0.0,0.0,0
1494414884.4599774,0,1494414884,459977293,gps,0,0,47.39599609375,8.6478910446167,0.0,0.0,0.0,0.0,0.0,0.0,0.0,0.0,0.0,0.0,0
1494414884.5599744,0,1494414884,559974357,gps,0,0,47.39599609375,8.6478910446167,0.0,0.0,0.0,0.0,0.0,0.0,0.0,0.0,0.0,0.0,0
1494414884.6599967,0,1494414884,659996775,gps,0,0,47.3959846496582,8.647871017456055,0.0,0.0,0.0,0.0,0.0,0.0,0.0,0.0,0.0,0.0,0
1494414884.7600446,0,1494414884,760044599,gps,0,0,47.3959846496582,8.647871017456055,0.0,0.0,0.0,0.0,0.0,0.0,0.0,0.0,0.0,0.0,0
1494414884.8600326,0,1494414884,860032521,gps,0,0,47.395973205566406,8.647848129272461,0.0,0.0,0.0,0.0,0.0,0.0,0.0,0.0,0.0,0.0,0
1494414884.9599829,0,1494414884,959982944,gps,0,0,47.395973205566406,8.647848129272461,0.0,0.0,0.0,0.0,0.0,0.0,0.0,0.0,0.0,0.0,0
1494414885.06001,0,1494414885,60009900,gps,0,0,47.39596176147461,8.647822380065918,0.0,0.0,0.0,0.0,0.0,0.0,0.0,0.0,0.0,0.0,0
1494414885.1604247,0,1494414885,160424747,gps,0,0,47.39596176147461,8.647822380065918,0.0,0.0,0.0,0.0,0.0,0.0,0.0,0.0,0.0,0.0,0
1494414885.2599921,0,1494414885,259992198,gps,0,0,47.39595413208008,8.647795677185059,0.0,0.0,0.0,0.0,0.0,0.0,0.0,0.0,0.0,0.0,0
1494414885.359926,0,1494414885,359926094,gps,0,0,47.39595413208008,8.647795677185059,0.0,0.0,0.0,0.0,0.0,0.0,0.0,0.0,0.0,0.0,0
1494414885.459974,0,1494414885,459973968,gps,0,0,47.39594650268555,8.64776611328125,0.0,0.0,0.0,0.0,0.0,0.0,0.0,0.0,0.0,0.0,0
1494414885.559927,0,1494414885,559926902,gps,0,0,47.39594650268555,8.64776611328125,0.0,0.0,0.0,0.0,0.0,0.0,0.0,0.0,0.0,0.0,0
1494414885.6599607,0,1494414885,659960669,gps,0,0,47.395938873291016,8.647734642028809,0.0,0.0,0.0,0.0,0.0,0.0,0.0,0.0,0.0,0.0,0
1494414885.7599494,0,1494414885,759949526,gps,0,0,47.395938873291016,8.647734642028809,0.0,0.0,0.0,0.0,0.0,0.0,0.0,0.0,0.0,0.0,0
1494414885.8599243,0,1494414885,859924431,gps,0,0,47.39593505859375,8.64770221710205,0.0,0.0,0.0,0.0,0.0,0.0,0.0,0.0,0.0,0.0,0
1494414885.959933,0,1494414885,959932969,gps,0,0,47.39593505859375,8.64770221710205,0.0,0.0,0.0,0.0,0.0,0.0,0.0,0.0,0.0,0.0,0
1494414886.05992,0,1494414886,59919980,gps,0,0,47.395931243896484,8.647669792175293,0.0,0.0,0.0,0.0,0.0,0.0,0.0,0.0,0.0,0.0,0
1494414886.1602457,0,1494414886,160245773,gps,0,0,47.395931243896484,8.647669792175293,0.0,0.0,0.0,0.0,0.0,0.0,0.0,0.0,0.0,0.0,0
1494414886.2599375,0,1494414886,259937633,gps,0,0,47.39592742919922,8.647635459899902,0.0,0.0,0.0,0.0,0.0,0.0,0.0,0.0,0.0,0.0,0
1494414886.3599586,0,1494414886,359958724,gps,0,0,47.39592742919922,8.647635459899902,0.0,0.0,0.0,0.0,0.0,0.0,0.0,0.0,0.0,0.0,0
1494414886.459968,0,1494414886,459968179,gps,0,0,47.39592361450195,8.647599220275879,0.0,0.0,0.0,0.0,0.0,0.0,0.0,0.0,0.0,0.0,0
1494414886.5599952,0,1494414886,559995074,gps,0,0,47.39592361450195,8.647599220275879,0.0,0.0,0.0,0.0,0.0,0.0,0.0,0.0,0.0,0.0,0
1494414886.6599844,0,1494414886,659984420,gps,0,0,47.39592361450195,8.647562980651855,0.0,0.0,0.0,0.0,0.0,0.0,0.0,0.0,0.0,0.0,0
1494414886.760006,0,1494414886,760006042,gps,0,0,47.39592361450195,8.647562980651855,0.0,0.0,0.0,0.0,0.0,0.0,0.0,0.0,0.0,0.0,0
1494414886.8599613,0,1494414886,859961177,gps,0,0,47.39592742919922,8.647527694702148,0.0,0.0,0.0,0.0,0.0,0.0,0.0,0.0,0.0,0.0,0
1494414886.9599116,0,1494414886,959911587,gps,0,0,47.39592742919922,8.647527694702148,0.0,0.0,0.0,0.0,0.0,0.0,0.0,0.0,0.0,0.0,0
1494414887.0599866,0,1494414887,59986535,gps,0,0,47.39592742919922,8.647491455078125,0.0,0.0,0.0,0.0,0.0,0.0,0.0,0.0,0.0,0.0,0
1494414887.1603136,0,1494414887,160313523,gps,0,0,47.39592742919922,8.647491455078125,0.0,0.0,0.0,0.0,0.0,0.0,0.0,0.0,0.0,0.0,0
1494414887.2599452,0,1494414887,259945222,gps,0,0,47.39592742919922,8.647455215454102,0.0,0.0,0.0,0.0,0.0,0.0,0.0,0.0,0.0,0.0,0
1494414887.359958,0,1494414887,359957840,gps,0,0,47.39592742919922,8.647455215454102,0.0,0.0,0.0,0.0,0.0,0.0,0.0,0.0,0.0,0.0,0
1494414887.4599185,0,1494414887,459918400,gps,0,0,47.39592361450195,8.647420883178711,0.0,0.0,0.0,0.0,0.0,0.0,0.0,0.0,0.0,0.0,0
1494414887.5599504,0,1494414887,559950378,gps,0,0,47.39592361450195,8.647420883178711,0.0,0.0,0.0,0.0,0.0,0.0,0.0,0.0,0.0,0.0,0
1494414887.6599317,0,1494414887,659931748,gps,0,0,47.39591979980469,8.647390365600586,0.0,0.0,0.0,0.0,0.0,0.0,0.0,0.0,0.0,0.0,0
1494414887.759958,0,1494414887,759958067,gps,0,0,47.39591979980469,8.647390365600586,0.0,0.0,0.0,0.0,0.0,0.0,0.0,0.0,0.0,0.0,0
1494414887.8598661,0,1494414887,859866028,gps,0,0,47.39591598510742,8.647363662719727,0.0,0.0,0.0,0.0,0.0,0.0,0.0,0.0,0.0,0.0,0
1494414887.959945,0,1494414887,959944894,gps,0,0,47.39591598510742,8.647363662719727,0.0,0.0,0.0,0.0,0.0,0.0,0.0,0.0,0.0,0.0,0
1494414888.059867,0,1494414888,59866792,gps,0,0,47.39591979980469,8.647337913513184,0.0,0.0,0.0,0.0,0.0,0.0,0.0,0.0,0.0,0.0,0
1494414888.1602702,0,1494414888,160270146,gps,0,0,47.39591979980469,8.647337913513184,0.0,0.0,0.0,0.0,0.0,0.0,0.0,0.0,0.0,0.0,0
1494414888.259953,0,1494414888,259953104,gps,0,0,47.39591979980469,8.64731502532959,0.0,0.0,0.0,0.0,0.0,0.0,0.0,0.0,0.0,0.0,0
1494414888.3599076,0,1494414888,359907688,gps,0,0,47.39591979980469,8.64731502532959,0.0,0.0,0.0,0.0,0.0,0.0,0.0,0.0,0.0,0.0,0
1494414888.4599404,0,1494414888,459940442,gps,0,0,47.39592361450195,8.647294044494629,0.0,0.0,0.0,0.0,0.0,0.0,0.0,0.0,0.0,0.0,0
1494414888.559943,0,1494414888,559942933,gps,0,0,47.39592361450195,8.647294044494629,0.0,0.0,0.0,0.0,0.0,0.0,0.0,0.0,0.0,0.0,0
1494414888.6598823,0,1494414888,659882245,gps,0,0,47.39592742919922,8.647276878356934,0.0,0.0,0.0,0.0,0.0,0.0,0.0,0.0,0.0,0.0,0
1494414888.7598732,0,1494414888,759873099,gps,0,0,47.39592742919922,8.647276878356934,0.0,0.0,0.0,0.0,0.0,0.0,0.0,0.0,0.0,0.0,0
1494414888.859897,0,1494414888,859897001,gps,0,0,47.395931243896484,8.647260665893555,0.0,0.0,0.0,0.0,0.0,0.0,0.0,0.0,0.0,0.0,0
1494414888.9598737,0,1494414888,959873738,gps,0,0,47.395931243896484,8.647260665893555,0.0,0.0,0.0,0.0,0.0,0.0,0.0,0.0,0.0,0.0,0
1494414889.059892,0,1494414889,59891997,gps,0,0,47.39592742919922,8.647247314453125,0.0,0.0,0.0,0.0,0.0,0.0,0.0,0.0,0.0,0.0,0
1494414889.1602645,0,1494414889,160264548,gps,0,0,47.39592742919922,8.647247314453125,0.0,0.0,0.0,0.0,0.0,0.0,0.0,0.0,0.0,0.0,0
1494414889.259854,0,1494414889,259854012,gps,0,0,47.39592361450195,8.647235870361328,0.0,0.0,0.0,0.0,0.0,0.0,0.0,0.0,0.0,0.0,0
1494414889.359861,0,1494414889,359860841,gps,0,0,47.39592361450195,8.647235870361328,0.0,0.0,0.0,0.0,0.0,0.0,0.0,0.0,0.0,0.0,0
1494414889.459822,0,1494414889,459821977,gps,0,0,47.39591598510742,8.647228240966797,0.0,0.0,0.0,0.0,0.0,0.0,0.0,0.0,0.0,0.0,0
1494414889.5599225,0,1494414889,559922545,gps,0,0,47.39591598510742,8.647228240966797,0.0,0.0,0.0,0.0,0.0,0.0,0.0,0.0,0.0,0.0,0
1494414889.6598392,0,1494414889,659839062,gps,0,0,47.39590835571289,8.647224426269531,0.0,0.0,0.0,0.0,0.0,0.0,0.0,0.0,0.0,0.0,0
1494414889.7599232,0,1494414889,759923142,gps,0,0,47.39590835571289,8.647224426269531,0.0,0.0,0.0,0.0,0.0,0.0,0.0,0.0,0.0,0.0,0
1494414889.8598585,0,1494414889,859858581,gps,0,0,47.39590072631836,8.647222518920898,0.0,0.0,0.0,0.0,0.0,0.0,0.0,0.0,0.0,0.0,0
1494414889.959888,0,1494414889,959888099,gps,0,0,47.39590072631836,8.647222518920898,0.0,0.0,0.0,0.0,0.0,0.0,0.0,0.0,0.0,0.0,0
1494414890.059841,0,1494414890,59840930,gps,0,0,47.39589309692383,8.647224426269531,0.0,0.0,0.0,0.0,0.0,0.0,0.0,0.0,0.0,0.0,0
1494414890.160196,0,1494414890,160196042,gps,0,0,47.39589309692383,8.647224426269531,0.0,0.0,0.0,0.0,0.0,0.0,0.0,0.0,0.0,0.0,0
1494414890.2598395,0,1494414890,259839638,gps,0,0,47.3958854675293,8.647228240966797,0.0,0.0,0.0,0.0,0.0,0.0,0.0,0.0,0.0,0.0,0
1494414890.359833,0,1494414890,359833061,gps,0,0,47.3958854675293,8.647228240966797,0.0,0.0,0.0,0.0,0.0,0.0,0.0,0.0,0.0,0.0,0
1494414890.459861,0,1494414890,459860960,gps,0,0,47.395877838134766,8.647235870361328,0.0,0.0,0.0,0.0,0.0,0.0,0.0,0.0,0.0,0.0,0
1494414890.5599387,0,1494414890,559938581,gps,0,0,47.395877838134766,8.647235870361328,0.0,0.0,0.0,0.0,0.0,0.0,0.0,0.0,0.0,0.0,0
1494414890.6598496,0,1494414890,659849674,gps,0,0,47.3958740234375,8.647246360778809,0.0,0.0,0.0,0.0,0.0,0.0,0.0,0.0,0.0,0.0,0
1494414890.759831,0,1494414890,759831028,gps,0,0,47.3958740234375,8.647246360778809,0.0,0.0,0.0,0.0,0.0,0.0,0.0,0.0,0.0,0.0,0
1494414890.859802,0,1494414890,859802016,gps,0,0,47.3958740234375,8.647259712219238,0.0,0.0,0.0,0.0,0.0,0.0,0.0,0.0,0.0,0.0,0
1494414890.9597707,0,1494414890,959770736,gps,0,0,47.3958740234375,8.647259712219238,0.0,0.0,0.0,0.0,0.0,0.0,0.0,0.0,0.0,0.0,0
1494414891.0598125,0,1494414891,59812565,gps,0,0,47.3958740234375,8.647273063659668,0.0,0.0,0.0,0.0,0.0,0.0,0.0,0.0,0.0,0.0,0
1494414891.1602283,0,1494414891,160228328,gps,0,0,47.3958740234375,8.647273063659668,0.0,0.0,0.0,0.0,0.0,0.0,0.0,0.0,0.0,0.0,0
1494414891.2598383,0,1494414891,259838233,gps,0,0,47.3958740234375,8.647286415100098,0.0,0.0,0.0,0.0,0.0,0.0,0.0,0.0,0.0,0.0,0
1494414891.3600821,0,1494414891,360082133,gps,0,0,47.3958740234375,8.647286415100098,0.0,0.0,0.0,0.0,0.0,0.0,0.0,0.0,0.0,0.0,0
1494414891.4598856,0,1494414891,459885566,gps,0,0,47.3958740234375,8.64730167388916,0.0,0.0,0.0,0.0,0.0,0.0,0.0,0.0,0.0,0.0,0
1494414891.559744,0,1494414891,559743955,gps,0,0,47.3958740234375,8.64730167388916,0.0,0.0,0.0,0.0,0.0,0.0,0.0,0.0,0.0,0.0,0
1494414891.6598158,0,1494414891,659815854,gps,0,0,47.3958740234375,8.647318840026855,0.0,0.0,0.0,0.0,0.0,0.0,0.0,0.0,0.0,0.0,0
1494414891.7598119,0,1494414891,759811952,gps,0,0,47.3958740234375,8.647318840026855,0.0,0.0,0.0,0.0,0.0,0.0,0.0,0.0,0.0,0.0,0
1494414891.8597345,0,1494414891,859734524,gps,0,0,47.3958740234375,8.647337913513184,0.0,0.0,0.0,0.0,0.0,0.0,0.0,0.0,0.0,0.0,0
1494414891.9598212,0,1494414891,959821313,gps,0,0,47.3958740234375,8.647337913513184,0.0,0.0,0.0,0.0,0.0,0.0,0.0,0.0,0.0,0.0,0
1494414892.059814,0,1494414892,59813995,gps,0,0,47.3958740234375,8.647358894348145,0.0,0.0,0.0,0.0,0.0,0.0,0.0,0.0,0.0,0.0,0
1494414892.1601286,0,1494414892,160128478,gps,0,0,47.3958740234375,8.647358894348145,0.0,0.0,0.0,0.0,0.0,0.0,0.0,0.0,0.0,0.0,0
1494414892.2598825,0,1494414892,259882385,gps,0,0,47.3958740234375,8.647383689880371,0.0,0.0,0.0,0.0,0.0,0.0,0.0,0.0,0.0,0.0,0
1494414892.3597848,0,1494414892,359784751,gps,0,0,47.3958740234375,8.647383689880371,0.0,0.0,0.0,0.0,0.0,0.0,0.0,0.0,0.0,0.0,0
1494414892.4599154,0,1494414892,459915345,gps,0,0,47.395877838134766,8.647409439086914,0.0,0.0,0.0,0.0,0.0,0.0,0.0,0.0,0.0,0.0,0
1494414892.55987,0,1494414892,559869930,gps,0,0,47.395877838134766,8.647409439086914,0.0,0.0,0.0,0.0,0.0,0.0,0.0,0.0,0.0,0.0,0
1494414892.6598547,0,1494414892,659854544,gps,0,0,47.395877838134766,8.647439002990723,0.0,0.0,0.0,0.0,0.0,0.0,0.0,0.0,0.0,0.0,0
1494414892.759803,0,1494414892,759802998,gps,0,0,47.395877838134766,8.647439002990723,0.0,0.0,0.0,0.0,0.0,0.0,0.0,0.0,0.0,0.0,0
1494414892.8599281,0,1494414892,859928043,gps,0,0,47.395877838134766,8.647470474243164,0.0,0.0,0.0,0.0,0.0,0.0,0.0,0.0,0.0,0.0,0
1494414892.959881,0,1494414892,959881016,gps,0,0,47.395877838134766,8.647470474243164,0.0,0.0,0.0,0.0,0.0,0.0,0.0,0.0,0.0,0.0,0
1494414893.0597456,0,1494414893,59745488,gps,0,0,47.3958740234375,8.647502899169922,0.0,0.0,0.0,0.0,0.0,0.0,0.0,0.0,0.0,0.0,0
1494414893.1601446,0,1494414893,160144669,gps,0,0,47.3958740234375,8.647502899169922,0.0,0.0,0.0,0.0,0.0,0.0,0.0,0.0,0.0,0.0,0
1494414893.2597997,0,1494414893,259799815,gps,0,0,47.3958740234375,8.647533416748047,0.0,0.0,0.0,0.0,0.0,0.0,0.0,0.0,0.0,0.0,0
1494414893.3597498,0,1494414893,359749718,gps,0,0,47.3958740234375,8.647533416748047,0.0,0.0,0.0,0.0,0.0,0.0,0.0,0.0,0.0,0.0,0
1494414893.4597652,0,1494414893,459765097,gps,0,0,47.3958740234375,8.647564888000488,0.0,0.0,0.0,0.0,0.0,0.0,0.0,0.0,0.0,0.0,0
1494414893.5596914,0,1494414893,559691357,gps,0,0,47.3958740234375,8.647564888000488,0.0,0.0,0.0,0.0,0.0,0.0,0.0,0.0,0.0,0.0,0
1494414893.6598794,0,1494414893,659879431,gps,0,0,47.395870208740234,8.647594451904297,0.0,0.0,0.0,0.0,0.0,0.0,0.0,0.0,0.0,0.0,0
1494414893.7597773,0,1494414893,759777206,gps,0,0,47.395870208740234,8.647594451904297,0.0,0.0,0.0,0.0,0.0,0.0,0.0,0.0,0.0,0.0,0
1494414893.8597336,0,1494414893,859733644,gps,0,0,47.39586639404297,8.647622108459473,0.0,0.0,0.0,0.0,0.0,0.0,0.0,0.0,0.0,0.0,0
1494414893.9597836,0,1494414893,959783458,gps,0,0,47.39586639404297,8.647622108459473,0.0,0.0,0.0,0.0,0.0,0.0,0.0,0.0,0.0,0.0,0
1494414894.059722,0,1494414894,59721854,gps,0,0,47.3958625793457,8.647649765014648,0.0,0.0,0.0,0.0,0.0,0.0,0.0,0.0,0.0,0.0,0
1494414894.1600919,0,1494414894,160091841,gps,0,0,47.3958625793457,8.647649765014648,0.0,0.0,0.0,0.0,0.0,0.0,0.0,0.0,0.0,0.0,0
1494414894.2597659,0,1494414894,259765812,gps,0,0,47.3958625793457,8.647676467895508,0.0,0.0,0.0,0.0,0.0,0.0,0.0,0.0,0.0,0.0,0
1494414894.3597562,0,1494414894,359756218,gps,0,0,47.3958625793457,8.647676467895508,0.0,0.0,0.0,0.0,0.0,0.0,0.0,0.0,0.0,0.0,0
1494414894.4597225,0,1494414894,459722464,gps,0,0,47.3958625793457,8.64770221710205,0.0,0.0,0.0,0.0,0.0,0.0,0.0,0.0,0.0,0.0,0
1494414894.5598965,0,1494414894,559896476,gps,0,0,47.3958625793457,8.64770221710205,0.0,0.0,0.0,0.0,0.0,0.0,0.0,0.0,0.0,0.0,0
1494414894.659737,0,1494414894,659737124,gps,0,0,47.3958625793457,8.647727966308594,0.0,0.0,0.0,0.0,0.0,0.0,0.0,0.0,0.0,0.0,0
1494414894.7597651,0,1494414894,759765203,gps,0,0,47.3958625793457,8.647727966308594,0.0,0.0,0.0,0.0,0.0,0.0,0.0,0.0,0.0,0.0,0
1494414894.8597455,0,1494414894,859745609,gps,0,0,47.39586639404297,8.64775276184082,0.0,0.0,0.0,0.0,0.0,0.0,0.0,0.0,0.0,0.0,0
1494414894.9598148,0,1494414894,959814768,gps,0,0,47.39586639404297,8.64775276184082,0.0,0.0,0.0,0.0,0.0,0.0,0.0,0.0,0.0,0.0,0
1494414895.0596783,0,1494414895,59678399,gps,0,0,47.395870208740234,8.64777660369873,0.0,0.0,0.0,0.0,0.0,0.0,0.0,0.0,0.0,0.0,0
1494414895.160083,0,1494414895,160083136,gps,0,0,47.395870208740234,8.64777660369873,0.0,0.0,0.0,0.0,0.0,0.0,0.0,0.0,0.0,0.0,0
1494414895.2596967,0,1494414895,259696732,gps,0,0,47.3958740234375,8.64780044555664,0.0,0.0,0.0,0.0,0.0,0.0,0.0,0.0,0.0,0.0,0
1494414895.3597941,0,1494414895,359794093,gps,0,0,47.3958740234375,8.64780044555664,0.0,0.0,0.0,0.0,0.0,0.0,0.0,0.0,0.0,0.0,0
1494414895.4596622,0,1494414895,459662191,gps,0,0,47.3958740234375,8.647825241088867,0.0,0.0,0.0,0.0,0.0,0.0,0.0,0.0,0.0,0.0,0
1494414895.559793,0,1494414895,559792947,gps,0,0,47.3958740234375,8.647825241088867,0.0,0.0,0.0,0.0,0.0,0.0,0.0,0.0,0.0,0.0,0
1494414895.6597047,0,1494414895,659704797,gps,0,0,47.3958740234375,8.647849082946777,0.0,0.0,0.0,0.0,0.0,0.0,0.0,0.0,0.0,0.0,0
1494414895.7597477,0,1494414895,759747859,gps,0,0,47.3958740234375,8.647849082946777,0.0,0.0,0.0,0.0,0.0,0.0,0.0,0.0,0.0,0.0,0
1494414895.8596752,0,1494414895,859675097,gps,0,0,47.3958740234375,8.647871971130371,0.0,0.0,0.0,0.0,0.0,0.0,0.0,0.0,0.0,0.0,0
1494414895.9596927,0,1494414895,959692743,gps,0,0,47.3958740234375,8.647871971130371,0.0,0.0,0.0,0.0,0.0,0.0,0.0,0.0,0.0,0.0,0
1494414896.0596344,0,1494414896,59634558,gps,0,0,47.395870208740234,8.647894859313965,0.0,0.0,0.0,0.0,0.0,0.0,0.0,0.0,0.0,0.0,0
1494414896.1601295,0,1494414896,160129598,gps,0,0,47.395870208740234,8.647894859313965,0.0,0.0,0.0,0.0,0.0,0.0,0.0,0.0,0.0,0.0,0
1494414896.2597945,0,1494414896,259794498,gps,0,0,47.3958625793457,8.647917747497559,0.0,0.0,0.0,0.0,0.0,0.0,0.0,0.0,0.0,0.0,0
1494414896.3596776,0,1494414896,359677573,gps,0,0,47.3958625793457,8.647917747497559,0.0,0.0,0.0,0.0,0.0,0.0,0.0,0.0,0.0,0.0,0
1494414896.4596722,0,1494414896,459672113,gps,0,0,47.39585494995117,8.647939682006836,0.0,0.0,0.0,0.0,0.0,0.0,0.0,0.0,0.0,0.0,0
1494414896.5597868,0,1494414896,559786854,gps,0,0,47.39585494995117,8.647939682006836,0.0,0.0,0.0,0.0,0.0,0.0,0.0,0.0,0.0,0.0,0
1494414896.6597097,0,1494414896,659709697,gps,0,0,47.395851135253906,8.64795970916748,0.0,0.0,0.0,0.0,0.0,0.0,0.0,0.0,0.0,0.0,0
1494414896.7596807,0,1494414896,759680745,gps,0,0,47.395851135253906,8.64795970916748,0.0,0.0,0.0,0.0,0.0,0.0,0.0,0.0,0.0,0.0,0
1494414896.8597188,0,1494414896,859718797,gps,0,0,47.39584732055664,8.647981643676758,0.0,0.0,0.0,0.0,0.0,0.0,0.0,0.0,0.0,0.0,0
1494414896.9596386,0,1494414896,959638601,gps,0,0,47.39584732055664,8.647981643676758,0.0,0.0,0.0,0.0,0.0,0.0,0.0,0.0,0.0,0.0,0
1494414897.0596488,0,1494414897,59648794,gps,0,0,47.39583969116211,8.648004531860352,0.0,0.0,0.0,0.0,0.0,0.0,0.0,0.0,0.0,0.0,0
1494414897.1600797,0,1494414897,160079633,gps,0,0,47.39583969116211,8.648004531860352,0.0,0.0,0.0,0.0,0.0,0.0,0.0,0.0,0.0,0.0,0
1494414897.2596886,0,1494414897,259688556,gps,0,0,47.395835876464844,8.648028373718262,0.0,0.0,0.0,0.0,0.0,0.0,0.0,0.0,0.0,0.0,0
1494414897.3597338,0,1494414897,359733718,gps,0,0,47.395835876464844,8.648028373718262,0.0,0.0,0.0,0.0,0.0,0.0,0.0,0.0,0.0,0.0,0
1494414897.4597461,0,1494414897,459746183,gps,0,0,47.395835876464844,8.648052215576172,0.0,0.0,0.0,0.0,0.0,0.0,0.0,0.0,0.0,0.0,0
1494414897.5596287,0,1494414897,559628696,gps,0,0,47.395835876464844,8.648052215576172,0.0,0.0,0.0,0.0,0.0,0.0,0.0,0.0,0.0,0.0,0
1494414897.6596787,0,1494414897,659678754,gps,0,0,47.39583206176758,8.648077011108398,0.0,0.0,0.0,0.0,0.0,0.0,0.0,0.0,0.0,0.0,0
1494414897.7596436,0,1494414897,759643445,gps,0,0,47.39583206176758,8.648077011108398,0.0,0.0,0.0,0.0,0.0,0.0,0.0,0.0,0.0,0.0,0
1494414897.8596313,0,1494414897,859631393,gps,0,0,47.39582824707031,8.648101806640625,0.0,0.0,0.0,0.0,0.0,0.0,0.0,0.0,0.0,0.0,0
1494414897.9597132,0,1494414897,959713261,gps,0,0,47.39582824707031,8.648101806640625,0.0,0.0,0.0,0.0,0.0,0.0,0.0,0.0,0.0,0.0,0
1494414898.0596147,0,1494414898,59614547,gps,0,0,47.39582824707031,8.648127555847168,0.0,0.0,0.0,0.0,0.0,0.0,0.0,0.0,0.0,0.0,0
1494414898.159964,0,1494414898,159963990,gps,0,0,47.39582824707031,8.648127555847168,0.0,0.0,0.0,0.0,0.0,0.0,0.0,0.0,0.0,0.0,0
1494414898.2596223,0,1494414898,259622375,gps,0,0,47.39582443237305,8.648151397705078,0.0,0.0,0.0,0.0,0.0,0.0,0.0,0.0,0.0,0.0,0
1494414898.359674,0,1494414898,359674028,gps,0,0,47.39582443237305,8.648151397705078,0.0,0.0,0.0,0.0,0.0,0.0,0.0,0.0,0.0,0.0,0
1494414898.459645,0,1494414898,459645098,gps,0,0,47.39582061767578,8.648173332214355,0.0,0.0,0.0,0.0,0.0,0.0,0.0,0.0,0.0,0.0,0
1494414898.559715,0,1494414898,559715051,gps,0,0,47.39582061767578,8.648173332214355,0.0,0.0,0.0,0.0,0.0,0.0,0.0,0.0,0.0,0.0,0
1494414898.6597197,0,1494414898,659719604,gps,0,0,47.39582061767578,8.648193359375,0.0,0.0,0.0,0.0,0.0,0.0,0.0,0.0,0.0,0.0,0
1494414898.759681,0,1494414898,759681091,gps,0,0,47.39582061767578,8.648193359375,0.0,0.0,0.0,0.0,0.0,0.0,0.0,0.0,0.0,0.0,0
1494414898.859594,0,1494414898,859594057,gps,0,0,47.39582061767578,8.648211479187012,0.0,0.0,0.0,0.0,0.0,0.0,0.0,0.0,0.0,0.0,0
1494414898.9596634,0,1494414898,959663291,gps,0,0,47.39582061767578,8.648211479187012,0.0,0.0,0.0,0.0,0.0,0.0,0.0,0.0,0.0,0.0,0
1494414899.0598586,0,1494414899,59858569,gps,0,0,47.39582061767578,8.648228645324707,0.0,0.0,0.0,0.0,0.0,0.0,0.0,0.0,0.0,0.0,0
1494414899.1599612,0,1494414899,159961284,gps,0,0,47.39582061767578,8.648228645324707,0.0,0.0,0.0,0.0,0.0,0.0,0.0,0.0,0.0,0.0,0
1494414899.2597091,0,1494414899,259709072,gps,0,0,47.39582443237305,8.648244857788086,0.0,0.0,0.0,0.0,0.0,0.0,0.0,0.0,0.0,0.0,0
1494414899.3596725,0,1494414899,359672493,gps,0,0,47.39582443237305,8.648244857788086,0.0,0.0,0.0,0.0,0.0,0.0,0.0,0.0,0.0,0.0,0
1494414899.4596894,0,1494414899,459689466,gps,0,0,47.39583206176758,8.648258209228516,0.0,0.0,0.0,0.0,0.0,0.0,0.0,0.0,0.0,0.0,0
1494414899.5596955,0,1494414899,559695533,gps,0,0,47.39583206176758,8.648258209228516,0.0,0.0,0.0,0.0,0.0,0.0,0.0,0.0,0.0,0.0,0
1494414899.659729,0,1494414899,659729102,gps,0,0,47.395843505859375,8.648269653320312,0.0,0.0,0.0,0.0,0.0,0.0,0.0,0.0,0.0,0.0,0
1494414899.7596827,0,1494414899,759682603,gps,0,0,47.395843505859375,8.648269653320312,0.0,0.0,0.0,0.0,0.0,0.0,0.0,0.0,0.0,0.0,0
1494414899.8596516,0,1494414899,859651575,gps,0,0,47.39585494995117,8.648276329040527,0.0,0.0,0.0,0.0,0.0,0.0,0.0,0.0,0.0,0.0,0
1494414899.959586,0,1494414899,959585795,gps,0,0,47.39585494995117,8.648276329040527,0.0,0.0,0.0,0.0,0.0,0.0,0.0,0.0,0.0,0.0,0
1494414900.0595982,0,1494414900,59598299,gps,0,0,47.395870208740234,8.648279190063477,0.0,0.0,0.0,0.0,0.0,0.0,0.0,0.0,0.0,0.0,0
1494414900.160106,0,1494414900,160105974,gps,0,0,47.395870208740234,8.648279190063477,0.0,0.0,0.0,0.0,0.0,0.0,0.0,0.0,0.0,0.0,0
1494414900.2596824,0,1494414900,259682361,gps,0,0,47.3958854675293,8.648279190063477,0.0,0.0,0.0,0.0,0.0,0.0,0.0,0.0,0.0,0.0,0
1494414900.3597631,0,1494414900,359763155,gps,0,0,47.3958854675293,8.648279190063477,0.0,0.0,0.0,0.0,0.0,0.0,0.0,0.0,0.0,0.0,0
1494414900.459691,0,1494414900,459691036,gps,0,0,47.39590072631836,8.648276329040527,0.0,0.0,0.0,0.0,0.0,0.0,0.0,0.0,0.0,0.0,0
1494414900.5596368,0,1494414900,559636883,gps,0,0,47.39590072631836,8.648276329040527,0.0,0.0,0.0,0.0,0.0,0.0,0.0,0.0,0.0,0.0,0
1494414900.6596787,0,1494414900,659678632,gps,0,0,47.39591598510742,8.648270606994629,0.0,0.0,0.0,0.0,0.0,0.0,0.0,0.0,0.0,0.0,0
1494414900.7596123,0,1494414900,759612222,gps,0,0,47.39591598510742,8.648270606994629,0.0,0.0,0.0,0.0,0.0,0.0,0.0,0.0,0.0,0.0,0
1494414900.8596003,0,1494414900,859600386,gps,0,0,47.39593505859375,8.648262023925781,0.0,0.0,0.0,0.0,0.0,0.0,0.0,0.0,0.0,0.0,0
1494414900.9595346,0,1494414900,959534555,gps,0,0,47.39593505859375,8.648262023925781,0.0,0.0,0.0,0.0,0.0,0.0,0.0,0.0,0.0,0.0,0
1494414901.059618,0,1494414901,59618006,gps,0,0,47.39595031738281,8.6482515335083,0.0,0.0,0.0,0.0,0.0,0.0,0.0,0.0,0.0,0.0,0
1494414901.1599543,0,1494414901,159954201,gps,0,0,47.39595031738281,8.6482515335083,0.0,0.0,0.0,0.0,0.0,0.0,0.0,0.0,0.0,0.0,0
1494414901.2597394,0,1494414901,259739434,gps,0,0,47.39596939086914,8.648238182067871,0.0,0.0,0.0,0.0,0.0,0.0,0.0,0.0,0.0,0.0,0
1494414901.3596668,0,1494414901,359666790,gps,0,0,47.39596939086914,8.648238182067871,0.0,0.0,0.0,0.0,0.0,0.0,0.0,0.0,0.0,0.0,0
1494414901.459663,0,1494414901,459662853,gps,0,0,47.3959846496582,8.648222923278809,0.0,0.0,0.0,0.0,0.0,0.0,0.0,0.0,0.0,0.0,0
1494414901.5596724,0,1494414901,559672279,gps,0,0,47.3959846496582,8.648222923278809,0.0,0.0,0.0,0.0,0.0,0.0,0.0,0.0,0.0,0.0,0
1494414901.659614,0,1494414901,659614015,gps,0,0,47.395999908447266,8.648209571838379,0.0,0.0,0.0,0.0,0.0,0.0,0.0,0.0,0.0,0.0,0
1494414901.7596054,0,1494414901,759605391,gps,0,0,47.395999908447266,8.648209571838379,0.0,0.0,0.0,0.0,0.0,0.0,0.0,0.0,0.0,0.0,0
1494414901.859622,0,1494414901,859622117,gps,0,0,47.39601516723633,8.648200988769531,0.0,0.0,0.0,0.0,0.0,0.0,0.0,0.0,0.0,0.0,0
1494414901.9596162,0,1494414901,959616177,gps,0,0,47.39601516723633,8.648200988769531,0.0,0.0,0.0,0.0,0.0,0.0,0.0,0.0,0.0,0.0,0
1494414902.0596356,0,1494414902,59635549,gps,0,0,47.396034240722656,8.648198127746582,0.0,0.0,0.0,0.0,0.0,0.0,0.0,0.0,0.0,0.0,0
1494414902.1599202,0,1494414902,159920237,gps,0,0,47.396034240722656,8.648198127746582,0.0,0.0,0.0,0.0,0.0,0.0,0.0,0.0,0.0,0.0,0
1494414902.2595885,0,1494414902,259588520,gps,0,0,47.396053314208984,8.648201942443848,0.0,0.0,0.0,0.0,0.0,0.0,0.0,0.0,0.0,0.0,0
1494414902.3597455,0,1494414902,359745390,gps,0,0,47.396053314208984,8.648201942443848,0.0,0.0,0.0,0.0,0.0,0.0,0.0,0.0,0.0,0.0,0
1494414902.4596741,0,1494414902,459674058,gps,0,0,47.39606475830078,8.648209571838379,0.0,0.0,0.0,0.0,0.0,0.0,0.0,0.0,0.0,0.0,0
1494414902.5595787,0,1494414902,559578763,gps,0,0,47.39606475830078,8.648209571838379,0.0,0.0,0.0,0.0,0.0,0.0,0.0,0.0,0.0,0.0,0
1494414902.659617,0,1494414902,659617027,gps,0,0,47.39607620239258,8.648221015930176,0.0,0.0,0.0,0.0,0.0,0.0,0.0,0.0,0.0,0.0,0
1494414902.759788,0,1494414902,759788077,gps,0,0,47.39607620239258,8.648221015930176,0.0,0.0,0.0,0.0,0.0,0.0,0.0,0.0,0.0,0.0,0
1494414902.8596272,0,1494414902,859627297,gps,0,0,47.39609146118164,8.648237228393555,0.0,0.0,0.0,0.0,0.0,0.0,0.0,0.0,0.0,0.0,0
1494414902.959543,0,1494414902,959542965,gps,0,0,47.39609146118164,8.648237228393555,0.0,0.0,0.0,0.0,0.0,0.0,0.0,0.0,0.0,0.0,0
1494414903.059555,0,1494414903,59554958,gps,0,0,47.39610290527344,8.648252487182617,0.0,0.0,0.0,0.0,0.0,0.0,0.0,0.0,0.0,0.0,0
1494414903.1599345,0,1494414903,159934485,gps,0,0,47.39610290527344,8.648252487182617,0.0,0.0,0.0,0.0,0.0,0.0,0.0,0.0,0.0,0.0,0
1494414903.2596114,0,1494414903,259611345,gps,0,0,47.3961181640625,8.648266792297363,0.0,0.0,0.0,0.0,0.0,0.0,0.0,0.0,0.0,0.0,0
1494414903.3595853,0,1494414903,359585205,gps,0,0,47.3961181640625,8.648266792297363,0.0,0.0,0.0,0.0,0.0,0.0,0.0,0.0,0.0,0.0,0
1494414903.459591,0,1494414903,459590810,gps,0,0,47.39613342285156,8.648276329040527,0.0,0.0,0.0,0.0,0.0,0.0,0.0,0.0,0.0,0.0,0
1494414903.559585,0,1494414903,559584997,gps,0,0,47.39613342285156,8.648276329040527,0.0,0.0,0.0,0.0,0.0,0.0,0.0,0.0,0.0,0.0,0
1494414903.6596665,0,1494414903,659666601,gps,0,0,47.396148681640625,8.648282051086426,0.0,0.0,0.0,0.0,0.0,0.0,0.0,0.0,0.0,0.0,0
